{"type":"FeatureCollection","features":[{"type":"Feature","geometry":{"type":"Point","coordinates":[4.8951679000000015,52.3702157]},"properties":{"name":"Amsterdam","slug":"amsterdam","sort_order":1000}},{"type":"Feature","geometry":{"type":"Point","coordinates":[-106.841831,39.1953106]},"properties":{"name":"Aspen","slug":"aspen","sort_order":1000}},{"type":"Feature","geometry":{"type":"Point","coordinates":[23.7293599,37.98391699999999]},"properties":{"name":"Athens","slug":"athens","sort_order":1000}},{"type":"Feature","geometry":{"type":"Point","coordinates":[-76.61218930000001,39.2903848]},"properties":{"name":"Baltimore","slug":"baltimore","sort_order":1000}},{"type":"Feature","geometry":{"type":"Point","coordinates":[77.59456270000001,12.971598699999998]},"properties":{"name":"Bangalore","slug":"bangalore","sort_order":1000}},{"type":"Feature","geometry":{"type":"Point","coordinates":[100.5241235,13.727895600000002]},"properties":{"name":"Bangkok","slug":"bangkok","sort_order":1000}},{"type":"Feature","geometry":{"type":"Point","coordinates":[2.1734035,41.38506389999999]},"properties":{"name":"Barcelona","slug":"barcelona","sort_order":1000}},{"type":"Feature","geometry":{"type":"Point","coordinates":[7.597550699999999,47.567442199999995]},"properties":{"name":"Basel","slug":"basel","sort_order":1000}},{"type":"Feature","geometry":{"type":"Point","coordinates":[116.407526,39.90403]},"properties":{"name":"Beijing","slug":"beijing","sort_order":1000}},{"type":"Feature","geometry":{"type":"Point","coordinates":[35.495479,33.888629]},"properties":{"name":"Beirut","slug":"beirut","sort_order":1000}},{"type":"Feature","geometry":{"type":"Point","coordinates":[13.404954000000002,52.52000659999998]},"properties":{"name":"Berlin","slug":"berlin","sort_order":5}},{"type":"Feature","geometry":{"type":"Point","coordinates":[-74.075833,4.598056000000001]},"properties":{"name":"Bogota","slug":"bogota","sort_order":1000}},{"type":"Feature","geometry":{"type":"Point","coordinates":[11.342616299999998,44.494887]},"properties":{"name":"Bologna","slug":"bologna","sort_order":1000}},{"type":"Feature","geometry":{"type":"Point","coordinates":[-71.0597732,42.3584308]},"properties":{"name":"Boston","slug":"boston","sort_order":1000}},{"type":"Feature","geometry":{"type":"Point","coordinates":[4.3517103,50.8503396]},"properties":{"name":"Brussels","slug":"brussels","sort_order":1000}},{"type":"Feature","geometry":{"type":"Point","coordinates":[-58.381593099999996,-34.603723200000005]},"properties":{"name":"Buenos Aires","slug":"buenos-aires","sort_order":1000}},{"type":"Feature","geometry":{"type":"Point","coordinates":[18.4240553,-33.9248685]},"properties":{"name":"Cape Town","slug":"cape-town","sort_order":1000}},{"type":"Feature","geometry":{"type":"Point","coordinates":[-87.6297982,41.8781136]},"properties":{"name":"Chicago","slug":"chicago","sort_order":1000}},{"type":"Feature","geometry":{"type":"Point","coordinates":[6.9602786,50.937531]},"properties":{"name":"Cologne","slug":"cologne","sort_order":1000}},{"type":"Feature","geometry":{"type":"Point","coordinates":[12.568337099999999,55.67609680000001]},"properties":{"name":"Copenhagen","slug":"copenhagen","sort_order":1000}},{"type":"Feature","geometry":{"type":"Point","coordinates":[128.6,35.8667]},"properties":{"name":"Daegu","slug":"daegu","sort_order":1000}},{"type":"Feature","geometry":{"type":"Point","coordinates":[-96.80045109999999,32.78013990000001]},"properties":{"name":"Dallas","slug":"dallas","sort_order":1000}},{"type":"Feature","geometry":{"type":"Point","coordinates":[-104.98471789999999,39.737567]},"properties":{"name":"Denver","slug":"denver","sort_order":1000}},{"type":"Feature","geometry":{"type":"Point","coordinates":[55.1817407,25.047664299999994]},"properties":{"name":"Dubai","slug":"dubai","sort_order":1000}},{"type":"Feature","geometry":{"type":"Point","coordinates":[-6.2603097000000005,53.3498053]},"properties":{"name":"Dublin","slug":"dublin","sort_order":1000}},{"type":"Feature","geometry":{"type":"Point","coordinates":[6.773455599999999,51.227741099999996]},"properties":{"name":"Düsseldorf","slug":"dusseldorf","sort_order":1000}},{"type":"Feature","geometry":{"type":"Point","coordinates":[-72.1848009,40.963433500000015]},"properties":{"name":"East Hampton","slug":"east-hampton","sort_order":1000}},{"type":"Feature","geometry":{"type":"Point","coordinates":[11.248000599999997,43.7710332]},"properties":{"name":"Florence","slug":"florence","sort_order":1000}},{"type":"Feature","geometry":{"type":"Point","coordinates":[8.6821267,50.1109221]},"properties":{"name":"Frankfurt","slug":"frankfurt","sort_order":1000}},{"type":"Feature","geometry":{"type":"Point","coordinates":[6.142296099999999,46.198392199999994]},"properties":{"name":"Geneva","slug":"geneva","sort_order":1000}},{"type":"Feature","geometry":{"type":"Point","coordinates":[-4.251806000000001,55.864237]},"properties":{"name":"Glasglow","slug":"glasglow","sort_order":1000}},{"type":"Feature","geometry":{"type":"Point","coordinates":[9.993681800000001,53.551084599999996]},"properties":{"name":"Hamburg","slug":"hamburg","sort_order":1000}},{"type":"Feature","geometry":{"type":"Point","coordinates":[24.941024800000005,60.17332440000002]},"properties":{"name":"Helsinki","slug":"helsinki","sort_order":1000}},{"type":"Feature","geometry":{"type":"Point","coordinates":[114.109497,22.396428]},"properties":{"name":"Hong Kong","slug":"hong-kong","sort_order":8}},{"type":"Feature","geometry":{"type":"Point","coordinates":[-95.3693896,29.760192699999998]},"properties":{"name":"Houston","slug":"houston","sort_order":1000}},{"type":"Feature","geometry":{"type":"Point","coordinates":[28.97696,41.00527]},"properties":{"name":"Istanbul","slug":"istanbul","sort_order":1000}},{"type":"Feature","geometry":{"type":"Point","coordinates":[35.2167,31.7833]},"properties":{"name":"Jerusalem","slug":"jerusalem","sort_order":1000}},{"type":"Feature","geometry":{"type":"Point","coordinates":[28.0456,-26.2044]},"properties":{"name":"Johannesburg","slug":"johannesburg","sort_order":1000}},{"type":"Feature","geometry":{"type":"Point","coordinates":[-54.6688857,-34.8371561]},"properties":{"name":"José Ignacio","slug":"jose-ignacio","sort_order":1000}},{"type":"Feature","geometry":{"type":"Point","coordinates":[101.686855,3.139003]},"properties":{"name":"Kuala Lumpur","slug":"kuala-lumpur","sort_order":1000}},{"type":"Feature","geometry":{"type":"Point","coordinates":[12.373074699999998,51.3396955]},"properties":{"name":"Leipzig","slug":"leipzig","sort_order":1000}},{"type":"Feature","geometry":{"type":"Point","coordinates":[-77.0427934,-12.046373999999998]},"properties":{"name":"Lima","slug":"lima","sort_order":1000}},{"type":"Feature","geometry":{"type":"Point","coordinates":[-9.1393366,38.7222524]},"properties":{"name":"Lisbon","slug":"lisbon","sort_order":1000}},{"type":"Feature","geometry":{"type":"Point","coordinates":[-0.12775830000000002,51.5073509]},"properties":{"name":"London","slug":"london","sort_order":2}},{"type":"Feature","geometry":{"type":"Point","coordinates":[-118.24368490000002,34.052234199999994]},"properties":{"name":"Los Angeles","slug":"los-angeles","sort_order":3}},{"type":"Feature","geometry":{"type":"Point","coordinates":[-3.7037902,40.4167754]},"properties":{"name":"Madrid","slug":"madrid","sort_order":1000}},{"type":"Feature","geometry":{"type":"Point","coordinates":[121.02444519999999,14.554728999999998]},"properties":{"name":"Makati City","slug":"makati-city","sort_order":1000}},{"type":"Feature","geometry":{"type":"Point","coordinates":[144.96328000000003,-37.814107]},"properties":{"name":"Melbourne","slug":"melbourne","sort_order":1000}},{"type":"Feature","geometry":{"type":"Point","coordinates":[-99.13320799999998,19.432607700000002]},"properties":{"name":"Mexico City","slug":"mexico-city","sort_order":1000}},{"type":"Feature","geometry":{"type":"Point","coordinates":[-80.2040435,25.7890972]},"properties":{"name":"Miami","slug":"miami","sort_order":6}},{"type":"Feature","geometry":{"type":"Point","coordinates":[9.185924300000002,45.465421899999996]},"properties":{"name":"Milan","slug":"milan","sort_order":9}},{"type":"Feature","geometry":{"type":"Point","coordinates":[-56.3702906,-34.8195806]},"properties":{"name":"Montevideo","slug":"montevideo","sort_order":1000}},{"type":"Feature","geometry":{"type":"Point","coordinates":[-73.55399249999999,45.5086699]},"properties":{"name":"Montreal","slug":"montreal","sort_order":1000}},{"type":"Feature","geometry":{"type":"Point","coordinates":[37.3523162,55.7498598]},"properties":{"name":"Moscow","slug":"moscow","sort_order":1000}},{"type":"Feature","geometry":{"type":"Point","coordinates":[72.8258,18.975]},"properties":{"name":"Mumbai","slug":"mumbai","sort_order":1000}},{"type":"Feature","geometry":{"type":"Point","coordinates":[11.581980600000001,48.1351253]},"properties":{"name":"Munich","slug":"munich","sort_order":1000}},{"type":"Feature","geometry":{"type":"Point","coordinates":[-81.79481030000001,26.142035799999995]},"properties":{"name":"Naples","slug":"naples","sort_order":1000}},{"type":"Feature","geometry":{"type":"Point","coordinates":[14.2681244,40.851774600000006]},"properties":{"name":"Napoli","slug":"napoli","sort_order":1000}},{"type":"Feature","geometry":{"type":"Point","coordinates":[77.22496,28.635308000000002]},"properties":{"name":"New Delhi","slug":"new-delhi","sort_order":1000}},{"type":"Feature","geometry":{"type":"Point","coordinates":[-74.0059413,40.7127837]},"properties":{"name":"New York","slug":"new-york","sort_order":1}},{"type":"Feature","geometry":{"type":"Point","coordinates":[10.7522454,59.913868799999996]},"properties":{"name":"Oslo","slug":"oslo","sort_order":1000}},{"type":"Feature","geometry":{"type":"Point","coordinates":[-80.03642969999999,26.705620600000003]},"properties":{"name":"Palm Beach","slug":"palm-beach","sort_order":1000}},{"type":"Feature","geometry":{"type":"Point","coordinates":[2.3522219000000004,48.856614]},"properties":{"name":"Paris","slug":"paris","sort_order":4}},{"type":"Feature","geometry":{"type":"Point","coordinates":[-75.16378900000002,39.952335000000005]},"properties":{"name":"Philadelphia","slug":"philadelphia","sort_order":1000}},{"type":"Feature","geometry":{"type":"Point","coordinates":[-122.67620709999998,45.52345149999999]},"properties":{"name":"Portland","slug":"portland","sort_order":1000}},{"type":"Feature","geometry":{"type":"Point","coordinates":[-71.4128343,41.823989100000006]},"properties":{"name":"Providence","slug":"providence","sort_order":1000}},{"type":"Feature","geometry":{"type":"Point","coordinates":[-43.1970773,-22.9082998]},"properties":{"name":"Rio de Janeiro","slug":"rio-de-janeiro","sort_order":1000}},{"type":"Feature","geometry":{"type":"Point","coordinates":[12.4801802,41.8723889]},"properties":{"name":"Rome","slug":"rome","sort_order":1000}},{"type":"Feature","geometry":{"type":"Point","coordinates":[13.05501,47.80948999999999]},"properties":{"name":"Salzburg","slug":"salzburg","sort_order":1000}},{"type":"Feature","geometry":{"type":"Point","coordinates":[-122.41941550000001,37.7749295]},"properties":{"name":"San Francisco","slug":"san-francisco","sort_order":7}},{"type":"Feature","geometry":{"type":"Point","coordinates":[-68.5214081,-31.527273200000003]},"properties":{"name":"San Juan","slug":"san-juan","sort_order":1000}},{"type":"Feature","geometry":{"type":"Point","coordinates":[-105.937799,35.6869752]},"properties":{"name":"Santa Fe","slug":"santa-fe","sort_order":1000}},{"type":"Feature","geometry":{"type":"Point","coordinates":[-118.4911912,34.0194543]},"properties":{"name":"Santa Monica","slug":"santa-monica","sort_order":1000}},{"type":"Feature","geometry":{"type":"Point","coordinates":[-70.641997,-33.4691199]},"properties":{"name":"Santiago","slug":"santiago","sort_order":1000}},{"type":"Feature","geometry":{"type":"Point","coordinates":[-46.63330939999998,-23.5505199]},"properties":{"name":"São Paulo","slug":"sao-paulo","sort_order":10}},{"type":"Feature","geometry":{"type":"Point","coordinates":[-122.3320708,47.6062095]},"properties":{"name":"Seattle","slug":"seattle","sort_order":1000}},{"type":"Feature","geometry":{"type":"Point","coordinates":[126.9779692,37.56653500000001]},"properties":{"name":"Seoul","slug":"seoul","sort_order":1000}},{"type":"Feature","geometry":{"type":"Point","coordinates":[121.47370099999999,31.230415999999998]},"properties":{"name":"Shanghai","slug":"shanghai","sort_order":1000}},{"type":"Feature","geometry":{"type":"Point","coordinates":[103.81983599999998,1.352083]},"properties":{"name":"Singapore","slug":"singapore","sort_order":1000}},{"type":"Feature","geometry":{"type":"Point","coordinates":[9.836141900000001,46.4950997]},"properties":{"name":"St. Moritz","slug":"st-moritz","sort_order":1000}},{"type":"Feature","geometry":{"type":"Point","coordinates":[30.0448854,59.9171483]},"properties":{"name":"St. Petersburg","slug":"st-petersburg","sort_order":1000}},{"type":"Feature","geometry":{"type":"Point","coordinates":[18.0685808,59.32932349999999]},"properties":{"name":"Stockholm","slug":"stockholm","sort_order":1000}},{"type":"Feature","geometry":{"type":"Point","coordinates":[151.2069902,-33.8674869]},"properties":{"name":"Sydney","slug":"sydney","sort_order":1000}},{"type":"Feature","geometry":{"type":"Point","coordinates":[121.54886690000001,25.0465658]},"properties":{"name":"Taipei","slug":"taipei","sort_order":1000}},{"type":"Feature","geometry":{"type":"Point","coordinates":[24.7453,59.4372]},"properties":{"name":"Talinn","slug":"talinn","sort_order":1000}},{"type":"Feature","geometry":{"type":"Point","coordinates":[44.7833,41.7167]},"properties":{"name":"Tbilisi","slug":"tbilisi","sort_order":1000}},{"type":"Feature","geometry":{"type":"Point","coordinates":[34.78176759999999,32.0852999]},"properties":{"name":"Tel Aviv","slug":"tel-aviv","sort_order":1000}},{"type":"Feature","geometry":{"type":"Point","coordinates":[139.6917064,35.68948749999999]},"properties":{"name":"Tokyo","slug":"tokyo","sort_order":1000}},{"type":"Feature","geometry":{"type":"Point","coordinates":[-79.3831843,43.65322599999999]},"properties":{"name":"Toronto","slug":"toronto","sort_order":1000}},{"type":"Feature","geometry":{"type":"Point","coordinates":[-123.11392680000002,49.26122600000001]},"properties":{"name":"Vancouver","slug":"vancouver","sort_order":1000}},{"type":"Feature","geometry":{"type":"Point","coordinates":[12.315515100000002,45.4408474]},"properties":{"name":"Venice","slug":"venice","sort_order":1000}},{"type":"Feature","geometry":{"type":"Point","coordinates":[16.3738189,48.20817430000001]},"properties":{"name":"Vienna","slug":"vienna","sort_order":1000}},{"type":"Feature","geometry":{"type":"Point","coordinates":[-77.0368707,38.9071923]},"properties":{"name":"Washington","slug":"washington","sort_order":1000}},{"type":"Feature","geometry":{"type":"Point","coordinates":[8.5391825,47.36864980000001]},"properties":{"name":"Zürich","slug":"zurich","sort_order":1000}},{"type":"Feature","geometry":{"type":"Point","coordinates":[6.652495,46.5533142]},"properties":{"name":"Lausanne","slug":"lausanne","sort_order":1000}}]}
